{"businesses": [{"id": "tXZOJhUUknjTRRo9j4ckZg", "alias": "farida-central-asian-cuisine-and-grill-new-york-2", "name": "Farida Central Asian Cuisine & Grill", "image_url": "https://s3-media1.fl.yelpcdn.com/bphoto/iAjciBFiY-y_YHYPyaSc8w/o.jpg", "is_closed": false, "url": "https://www.yelp.com/biz/farida-central-asian-cuisine-and-grill-new-york-2?adjust_creative=Vw2ZAYX48yvF8qP0CjwWnw&utm_campaign=yelp_api_v3&utm_medium=api_v3_business_search&utm_source=Vw2ZAYX48yvF8qP0CjwWnw", "review_count": 143, "categories": [{"alias": "uzbek", "title": "Uzbek"}, {"alias": "russian", "title": "Russian"}, {"alias": "halal", "title": "Halal"}], "rating": 4.5, "coordinates": {"latitude": 40.75568, "longitude": -73.99441}, "transactions": ["pickup", "delivery"], "price": "$$", "location": {"address1": "498 9th Ave", "address2": null, "address3": "", "city": "New York", "zip_code": "10018", "country": "US", "state": "NY", "display_address": ["498 9th Ave", "New York, NY 10018"]}, "phone": "+16468632020", "display_phone": "(646) 863-2020", "distance": 1424.3679262327753}, {"id": "lSJD2Gcf9LjJqpLE7pUlWQ", "alias": "russian-samovar-restaurant-and-piano-bar-new-york-2", "name": "Russian Samovar Restaurant and Piano Bar", "image_url": "https://s3-media2.fl.yelpcdn.com/bphoto/o8_HWEnmezlx2PNF2yPgrw/o.jpg", "is_closed": false, "url": "https://www.yelp.com/biz/russian-samovar-restaurant-and-piano-bar-new-york-2?adjust_creative=Vw2ZAYX48yvF8qP0CjwWnw&utm_campaign=yelp_api_v3&utm_medium=api_v3_business_search&utm_source=Vw2ZAYX48yvF8qP0CjwWnw", "review_count": 392, "categories": [{"alias": "russian", "title": "Russian"}, {"alias": "bars", "title": "Bars"}], "rating": 4.0, "coordinates": {"latitude": 40.7632, "longitude": -73.98469}, "transactions": ["restaurant_reservation", "pickup", "delivery"], "price": "$$", "location": {"address1": "256 W 52nd St", "address2": "", "address3": "", "city": "New York", "zip_code": "10019", "country": "US", "state": "NY", "display_address": ["256 W 52nd St", "New York, NY 10019"]}, "phone": "+12127570168", "display_phone": "(212) 757-0168", "distance": 618.5090328538038}, {"id": "yKOTFgZmTFeas8Pvt077vA", "alias": "the-russian-tea-room-new-york", "name": "The Russian Tea Room", "image_url": "https://s3-media1.fl.yelpcdn.com/bphoto/RUi5a52Tq-FomE-UjuE1Pg/o.jpg", "is_closed": false, "url": "https://www.yelp.com/biz/the-russian-tea-room-new-york?adjust_creative=Vw2ZAYX48yvF8qP0CjwWnw&utm_campaign=yelp_api_v3&utm_medium=api_v3_business_search&utm_source=Vw2ZAYX48yvF8qP0CjwWnw", "review_count": 920, "categories": [{"alias": "tea", "title": "Tea Rooms"}, {"alias": "russian", "title": "Russian"}, {"alias": "venues", "title": "Venues & Event Spaces"}], "rating": 3.0, "coordinates": {"latitude": 40.764958, "longitude": -73.9794337}, "transactions": ["pickup", "delivery"], "price": "$$$$", "location": {"address1": "150 W 57th St", "address2": null, "address3": "", "city": "New York", "zip_code": "10019", "country": "US", "state": "NY", "display_address": ["150 W 57th St", "New York, NY 10019"]}, "phone": "+12125817100", "display_phone": "(212) 581-7100", "distance": 533.2326032622334}, {"id": "qIDwDSiUMzzq-MWWirTQwQ", "alias": "anyway-cafe-new-york", "name": "Anyway Cafe", "image_url": "https://s3-media1.fl.yelpcdn.com/bphoto/0BNEWiFtiGGYFstW2La50A/o.jpg", "is_closed": false, "url": "https://www.yelp.com/biz/anyway-cafe-new-york?adjust_creative=Vw2ZAYX48yvF8qP0CjwWnw&utm_campaign=yelp_api_v3&utm_medium=api_v3_business_search&utm_source=Vw2ZAYX48yvF8qP0CjwWnw", "review_count": 208, "categories": [{"alias": "russian", "title": "Russian"}], "rating": 4.0, "coordinates": {"latitude": 40.7250017, "longitude": -73.9906009}, "transactions": [], "price": "$$", "location": {"address1": "32 E 2nd St", "address2": null, "address3": "", "city": "New York", "zip_code": "10003", "country": "US", "state": "NY", "display_address": ["32 E 2nd St", "New York, NY 10003"]}, "phone": "+12125333412", "display_phone": "(212) 533-3412", "distance": 4046.057410612375}, {"id": "kjmpK3LsCJp2qGukcV_0aQ", "alias": "daa-dumplings-new-york-4", "name": "Daa! Dumplings", "image_url": "https://s3-media3.fl.yelpcdn.com/bphoto/OHNsiqx5Jw7BMtOkRUEhAw/o.jpg", "is_closed": false, "url": "https://www.yelp.com/biz/daa-dumplings-new-york-4?adjust_creative=Vw2ZAYX48yvF8qP0CjwWnw&utm_campaign=yelp_api_v3&utm_medium=api_v3_business_search&utm_source=Vw2ZAYX48yvF8qP0CjwWnw", "review_count": 89, "categories": [{"alias": "russian", "title": "Russian"}], "rating": 4.5, "coordinates": {"latitude": 40.6650377515107, "longitude": -73.9798863371133}, "transactions": ["pickup", "delivery"], "price": "$$", "location": {"address1": "1000 S 8th Ave", "address2": "", "address3": "", "city": "New York", "zip_code": "10019", "country": "US", "state": "NY", "display_address": ["1000 S 8th Ave", "New York, NY 10019"]}, "phone": "+12127576207", "display_phone": "(212) 757-6207", "distance": 839.6218645803032}, {"id": "J97U8z3jOv5kirnz-9pOiA", "alias": "uncle-vanya-cafe-new-york-2", "name": "Uncle Vanya Cafe", "image_url": "https://s3-media1.fl.yelpcdn.com/bphoto/D4-UIeB7cLx8EgS_whiHrQ/o.jpg", "is_closed": false, "url": "https://www.yelp.com/biz/uncle-vanya-cafe-new-york-2?adjust_creative=Vw2ZAYX48yvF8qP0CjwWnw&utm_campaign=yelp_api_v3&utm_medium=api_v3_business_search&utm_source=Vw2ZAYX48yvF8qP0CjwWnw", "review_count": 112, "categories": [{"alias": "russian", "title": "Russian"}], "rating": 3.0, "coordinates": {"latitude": 40.765392, "longitude": -73.985099}, "transactions": ["pickup", "delivery"], "price": "$$", "location": {"address1": "315 W 54th St", "address2": "", "address3": "", "city": "New York", "zip_code": "10019", "country": "US", "state": "NY", "display_address": ["315 W 54th St", "New York, NY 10019"]}, "phone": "+12122620542", "display_phone": "(212) 262-0542", "distance": 797.8231772184573}, {"id": "zMV3am6rEoP43jLeHvzUeA", "alias": "antons-dumplings-brooklyn", "name": "Anton's Dumplings", "image_url": "https://s3-media2.fl.yelpcdn.com/bphoto/UvHfZ54EUa8JzpMFl0FHJw/o.jpg", "is_closed": false, "url": "https://www.yelp.com/biz/antons-dumplings-brooklyn?adjust_creative=Vw2ZAYX48yvF8qP0CjwWnw&utm_campaign=yelp_api_v3&utm_medium=api_v3_business_search&utm_source=Vw2ZAYX48yvF8qP0CjwWnw", "review_count": 59, "categories": [{"alias": "foodtrucks", "title": "Food Trucks"}, {"alias": "russian", "title": "Russian"}], "rating": 4.5, "coordinates": {"latitude": 40.71378, "longitude": -73.95645}, "transactions": ["pickup", "delivery"], "price": "$", "location": {"address1": "90 Havemeyer St", "address2": "", "address3": "", "city": "Brooklyn", "zip_code": "11211", "country": "US", "state": "NY", "display_address": ["90 Havemeyer St", "Brooklyn, NY 11211"]}, "phone": "+19179744827", "display_phone": "(917) 974-4827", "distance": 5490.904903453607}, {"id": "8kG7sCmIimbiG3_hjQfYZg", "alias": "matryoshka-new-york", "name": "Matryoshka", "image_url": "https://s3-media4.fl.yelpcdn.com/bphoto/sNhBmBhNg4ZyOXm1CkSZrw/o.jpg", "is_closed": false, "url": "https://www.yelp.com/biz/matryoshka-new-york?adjust_creative=Vw2ZAYX48yvF8qP0CjwWnw&utm_campaign=yelp_api_v3&utm_medium=api_v3_business_search&utm_source=Vw2ZAYX48yvF8qP0CjwWnw", "review_count": 21, "categories": [{"alias": "russian", "title": "Russian"}], "rating": 3.5, "coordinates": {"latitude": 40.7092569, "longitude": -74.0058865}, "transactions": ["pickup", "delivery"], "price": "$$", "location": {"address1": "88 Fulton St", "address2": "", "address3": "", "city": "New York", "zip_code": "10038", "country": "US", "state": "NY", "display_address": ["88 Fulton St", "New York, NY 10038"]}, "phone": "+12127668600", "display_phone": "(212) 766-8600", "distance": 6118.0842836133415}, {"id": "ByDKkAjaJ8bsD3gjISxJAQ", "alias": "appetitto-jackson-heights-3", "name": "Appetitto", "image_url": "https://s3-media2.fl.yelpcdn.com/bphoto/D3Rrk6mqdvosyncPtruZaA/o.jpg", "is_closed": false, "url": "https://www.yelp.com/biz/appetitto-jackson-heights-3?adjust_creative=Vw2ZAYX48yvF8qP0CjwWnw&utm_campaign=yelp_api_v3&utm_medium=api_v3_business_search&utm_source=Vw2ZAYX48yvF8qP0CjwWnw", "review_count": 15, "categories": [{"alias": "russian", "title": "Russian"}, {"alias": "delis", "title": "Delis"}, {"alias": "sandwiches", "title": "Sandwiches"}], "rating": 4.5, "coordinates": {"latitude": 40.7495136, "longitude": -73.8867641}, "transactions": [], "price": "$", "location": {"address1": "79-07 37th Ave", "address2": "", "address3": "", "city": "Jackson Heights", "zip_code": "11372", "country": "US", "state": "NY", "display_address": ["79-07 37th Ave", "Jackson Heights, NY 11372"]}, "phone": "+13478080709", "display_phone": "(347) 808-0709", "distance": 7818.1337537821655}, {"id": "cc7e4KgB4_ZICumwdEKOww", "alias": "lada-cafe-cliffside-park", "name": "Lada Cafe", "image_url": "https://s3-media2.fl.yelpcdn.com/bphoto/kV6IPeyqGqP4Vd-dEB_ypw/o.jpg", "is_closed": false, "url": "https://www.yelp.com/biz/lada-cafe-cliffside-park?adjust_creative=Vw2ZAYX48yvF8qP0CjwWnw&utm_campaign=yelp_api_v3&utm_medium=api_v3_business_search&utm_source=Vw2ZAYX48yvF8qP0CjwWnw", "review_count": 29, "categories": [{"alias": "russian", "title": "Russian"}, {"alias": "cafes", "title": "Cafes"}], "rating": 4.0, "coordinates": {"latitude": 40.82213, "longitude": -73.98994}, "transactions": [], "price": "$$", "location": {"address1": "520 Anderson Ave", "address2": "", "address3": "", "city": "Cliffside Park", "zip_code": "07010", "country": "US", "state": "NJ", "display_address": ["520 Anderson Ave", "Cliffside Park, NJ 07010"]}, "phone": "+12018408088", "display_phone": "(201) 840-8088", "distance": 6961.849435550229}, {"id": "aLO4CszMD7vXCzA13FPx8g", "alias": "babushkas-russian-dumplings-new-york", "name": "Babushkas Russian Dumplings", "image_url": "https://s3-media2.fl.yelpcdn.com/bphoto/uSz1Ek3V9XT1CMEpko1KLw/o.jpg", "is_closed": false, "url": "https://www.yelp.com/biz/babushkas-russian-dumplings-new-york?adjust_creative=Vw2ZAYX48yvF8qP0CjwWnw&utm_campaign=yelp_api_v3&utm_medium=api_v3_business_search&utm_source=Vw2ZAYX48yvF8qP0CjwWnw", "review_count": 2, "categories": [{"alias": "foodtrucks", "title": "Food Trucks"}, {"alias": "russian", "title": "Russian"}], "rating": 3.0, "coordinates": {"latitude": 40.7316289174502, "longitude": -74.0010534719223}, "transactions": ["pickup", "delivery"], "location": {"address1": "320 6th Ave", "address2": "", "address3": null, "city": "New York", "zip_code": "10014", "country": "US", "state": "NY", "display_address": ["320 6th Ave", "New York, NY 10014"]}, "phone": "", "display_phone": "", "distance": 3703.1495147349615}, {"id": "CBa-eX05NgW8-1uK3ewL7A", "alias": "syberia-international-food-fort-lee", "name": "Syberia International Food", "image_url": "https://s3-media2.fl.yelpcdn.com/bphoto/Y8zIGAb1NdeYocmGKiw6jg/o.jpg", "is_closed": false, "url": "https://www.yelp.com/biz/syberia-international-food-fort-lee?adjust_creative=Vw2ZAYX48yvF8qP0CjwWnw&utm_campaign=yelp_api_v3&utm_medium=api_v3_business_search&utm_source=Vw2ZAYX48yvF8qP0CjwWnw", "review_count": 10, "categories": [{"alias": "russian", "title": "Russian"}, {"alias": "delis", "title": "Delis"}, {"alias": "sandwiches", "title": "Sandwiches"}], "rating": 3.5, "coordinates": {"latitude": 40.8321126, "longitude": -73.9828845}, "transactions": [], "price": "$$", "location": {"address1": "268 Columbia Ave", "address2": "", "address3": "", "city": "Fort Lee", "zip_code": "07024", "country": "US", "state": "NJ", "display_address": ["268 Columbia Ave", "Fort Lee, NJ 07024"]}, "phone": "+12012242555", "display_phone": "(201) 224-2555", "distance": 8009.068520911118}]}