{"businesses": [{"id": "3NbhYebjZPjLTWZZyRuhsw", "alias": "the-winslow-new-york-2", "name": "The Winslow", "image_url": "https://s3-media2.fl.yelpcdn.com/bphoto/KqK_JDisR25T9QQdVvgHNg/o.jpg", "is_closed": false, "url": "https://www.yelp.com/biz/the-winslow-new-york-2?adjust_creative=Vw2ZAYX48yvF8qP0CjwWnw&utm_campaign=yelp_api_v3&utm_medium=api_v3_business_search&utm_source=Vw2ZAYX48yvF8qP0CjwWnw", "review_count": 473, "categories": [{"alias": "pubs", "title": "Pubs"}, {"alias": "british", "title": "British"}, {"alias": "cocktailbars", "title": "Cocktail Bars"}], "rating": 4.5, "coordinates": {"latitude": 40.7327766418457, "longitude": -73.9852142333984}, "transactions": ["restaurant_reservation"], "price": "$$", "location": {"address1": "243 E 14th St", "address2": "", "address3": "", "city": "New York", "zip_code": "10003", "country": "US", "state": "NY", "display_address": ["243 E 14th St", "New York, NY 10003"]}, "phone": "+12127777717", "display_phone": "(212) 777-7717", "distance": 3104.2413690378417}, {"id": "2RbBg1CIxBZAc2MQPdxkcA", "alias": "lillies-victorian-establishment-new-york", "name": "Lillie's Victorian Establishment", "image_url": "https://s3-media2.fl.yelpcdn.com/bphoto/rOgk09Ee9IPbMvcJFFLx-Q/o.jpg", "is_closed": false, "url": "https://www.yelp.com/biz/lillies-victorian-establishment-new-york?adjust_creative=Vw2ZAYX48yvF8qP0CjwWnw&utm_campaign=yelp_api_v3&utm_medium=api_v3_business_search&utm_source=Vw2ZAYX48yvF8qP0CjwWnw", "review_count": 1018, "categories": [{"alias": "bars", "title": "Bars"}, {"alias": "british", "title": "British"}, {"alias": "gastropubs", "title": "Gastropubs"}], "rating": 3.5, "coordinates": {"latitude": 40.737661, "longitude": -73.991113}, "transactions": [], "price": "$$", "location": {"address1": "13 E 17th St", "address2": "", "address3": "", "city": "New York", "zip_code": "10003", "country": "US", "state": "NY", "display_address": ["13 E 17th St", "New York, NY 10003"]}, "phone": "+12123371970", "display_phone": "(212) 337-1970", "distance": 2723.654735959163}, {"id": "OxqUWRZFUOz3r6_4bh4mfg", "alias": "cock-and-bull-new-york", "name": "Cock & Bull", "image_url": "https://s3-media2.fl.yelpcdn.com/bphoto/-82MfQUN7FXel19Ra9BsLg/o.jpg", "is_closed": false, "url": "https://www.yelp.com/biz/cock-and-bull-new-york?adjust_creative=Vw2ZAYX48yvF8qP0CjwWnw&utm_campaign=yelp_api_v3&utm_medium=api_v3_business_search&utm_source=Vw2ZAYX48yvF8qP0CjwWnw", "review_count": 500, "categories": [{"alias": "british", "title": "British"}, {"alias": "pubs", "title": "Pubs"}, {"alias": "gastropubs", "title": "Gastropubs"}], "rating": 4.0, "coordinates": {"latitude": 40.7560908823673, "longitude": -73.9804858350908}, "transactions": ["restaurant_reservation"], "price": "$$", "location": {"address1": "23 W 45th St", "address2": null, "address3": "", "city": "New York", "zip_code": "10036", "country": "US", "state": "NY", "display_address": ["23 W 45th St", "New York, NY 10036"]}, "phone": "+12128191900", "display_phone": "(212) 819-1900", "distance": 488.11146958107867}, {"id": "4FtqGBB96denVJu8KnuGKg", "alias": "the-milton-new-york", "name": "The Milton", "image_url": "https://s3-media1.fl.yelpcdn.com/bphoto/EKKXoS1Pq0N-MP71FJ3iNw/o.jpg", "is_closed": false, "url": "https://www.yelp.com/biz/the-milton-new-york?adjust_creative=Vw2ZAYX48yvF8qP0CjwWnw&utm_campaign=yelp_api_v3&utm_medium=api_v3_business_search&utm_source=Vw2ZAYX48yvF8qP0CjwWnw", "review_count": 369, "categories": [{"alias": "irish", "title": "Irish"}, {"alias": "cocktailbars", "title": "Cocktail Bars"}, {"alias": "british", "title": "British"}], "rating": 4.0, "coordinates": {"latitude": 40.78123, "longitude": -73.94893}, "transactions": ["pickup", "delivery"], "price": "$$", "location": {"address1": "1754 Second Ave", "address2": "", "address3": "", "city": "New York", "zip_code": "10128", "country": "US", "state": "NY", "display_address": ["1754 Second Ave", "New York, NY 10128"]}, "phone": "+12123691900", "display_phone": "(212) 369-1900", "distance": 3412.9366044217436}, {"id": "vRqj40pRwz0OHHRVgOdgRg", "alias": "the-clocktower-new-york", "name": "The Clocktower", "image_url": "https://s3-media4.fl.yelpcdn.com/bphoto/0hs-O_nq3cnEz2F1vsfNmA/o.jpg", "is_closed": false, "url": "https://www.yelp.com/biz/the-clocktower-new-york?adjust_creative=Vw2ZAYX48yvF8qP0CjwWnw&utm_campaign=yelp_api_v3&utm_medium=api_v3_business_search&utm_source=Vw2ZAYX48yvF8qP0CjwWnw", "review_count": 334, "categories": [{"alias": "british", "title": "British"}], "rating": 4.0, "coordinates": {"latitude": 40.74133, "longitude": -73.98747}, "transactions": [], "price": "$$$", "location": {"address1": "5 Madison Avenue", "address2": "", "address3": "", "city": "New York", "zip_code": "10010", "country": "US", "state": "NY", "display_address": ["5 Madison Avenue", "New York, NY 10010"]}, "phone": "+12124134300", "display_phone": "(212) 413-4300", "distance": 2240.959027778416}, {"id": "tyM20Xp41uWm5-q_htVQmA", "alias": "tea-and-sympathy-new-york", "name": "Tea & Sympathy", "image_url": "https://s3-media3.fl.yelpcdn.com/bphoto/28F2pwmNKvjpSefH6XfwIw/o.jpg", "is_closed": false, "url": "https://www.yelp.com/biz/tea-and-sympathy-new-york?adjust_creative=Vw2ZAYX48yvF8qP0CjwWnw&utm_campaign=yelp_api_v3&utm_medium=api_v3_business_search&utm_source=Vw2ZAYX48yvF8qP0CjwWnw", "review_count": 832, "categories": [{"alias": "coffee", "title": "Coffee & Tea"}, {"alias": "british", "title": "British"}, {"alias": "comfortfood", "title": "Comfort Food"}], "rating": 3.5, "coordinates": {"latitude": 40.738175114449, "longitude": -74.001898149974}, "transactions": ["pickup", "delivery", "restaurant_reservation"], "price": "$$", "location": {"address1": "108 Greenwich Ave", "address2": "", "address3": "", "city": "New York", "zip_code": "10011", "country": "US", "state": "NY", "display_address": ["108 Greenwich Ave", "New York, NY 10011"]}, "phone": "+12129899735", "display_phone": "(212) 989-9735", "distance": 3144.961671325897}, {"id": "i34wlziIjT8lHgUN1o0ToQ", "alias": "the-shakespeare-new-york", "name": "The Shakespeare", "image_url": "https://s3-media1.fl.yelpcdn.com/bphoto/01zB53rsuOTzFqu4FbfPog/o.jpg", "is_closed": false, "url": "https://www.yelp.com/biz/the-shakespeare-new-york?adjust_creative=Vw2ZAYX48yvF8qP0CjwWnw&utm_campaign=yelp_api_v3&utm_medium=api_v3_business_search&utm_source=Vw2ZAYX48yvF8qP0CjwWnw", "review_count": 339, "categories": [{"alias": "pubs", "title": "Pubs"}, {"alias": "british", "title": "British"}, {"alias": "vegan", "title": "Vegan"}], "rating": 4.0, "coordinates": {"latitude": 40.7506062, "longitude": -73.9801755}, "transactions": ["pickup", "delivery"], "price": "$$", "location": {"address1": "24 E 39th St", "address2": "", "address3": "", "city": "New York", "zip_code": "10016", "country": "US", "state": "NY", "display_address": ["24 E 39th St", "New York, NY 10016"]}, "phone": "+16468376779", "display_phone": "(646) 837-6779", "distance": 1077.7150383921796}, {"id": "66T7rXIZvcVg7XicY6QObg", "alias": "oscars-place-new-york-2", "name": "Oscar's Place", "image_url": "https://s3-media3.fl.yelpcdn.com/bphoto/e8ERGL2lbh659zUu55AdxA/o.jpg", "is_closed": false, "url": "https://www.yelp.com/biz/oscars-place-new-york-2?adjust_creative=Vw2ZAYX48yvF8qP0CjwWnw&utm_campaign=yelp_api_v3&utm_medium=api_v3_business_search&utm_source=Vw2ZAYX48yvF8qP0CjwWnw", "review_count": 184, "categories": [{"alias": "modern_european", "title": "Modern European"}, {"alias": "breakfast_brunch", "title": "Breakfast & Brunch"}, {"alias": "british", "title": "British"}], "rating": 4.5, "coordinates": {"latitude": 40.7318649, "longitude": -74.0064011}, "transactions": ["pickup", "delivery"], "price": "$$", "location": {"address1": "466 Hudson St", "address2": "", "address3": "", "city": "New York", "zip_code": "10014", "country": "US", "state": "NY", "display_address": ["466 Hudson St", "New York, NY 10014"]}, "phone": "+12127416479", "display_phone": "(212) 741-6479", "distance": 3937.808191805859}, {"id": "8fn5gUBncPJifhsEKmAejQ", "alias": "the-fat-radish-new-york", "name": "The Fat Radish", "image_url": "https://s3-media3.fl.yelpcdn.com/bphoto/JVu_x2KJSfyjYQ4NJSHCZg/o.jpg", "is_closed": false, "url": "https://www.yelp.com/biz/the-fat-radish-new-york?adjust_creative=Vw2ZAYX48yvF8qP0CjwWnw&utm_campaign=yelp_api_v3&utm_medium=api_v3_business_search&utm_source=Vw2ZAYX48yvF8qP0CjwWnw", "review_count": 527, "categories": [{"alias": "british", "title": "British"}, {"alias": "newamerican", "title": "American (New)"}], "rating": 3.5, "coordinates": {"latitude": 40.715293924183, "longitude": -73.9917185036817}, "transactions": ["pickup", "delivery"], "price": "$$$", "location": {"address1": "17 Orchard St", "address2": "", "address3": "", "city": "New York", "zip_code": "10002", "country": "US", "state": "NY", "display_address": ["17 Orchard St", "New York, NY 10002"]}, "phone": "+12123004053", "display_phone": "(212) 300-4053", "distance": 5117.6242199117705}, {"id": "7boggcCID7gVdNFQn4e8hQ", "alias": "carraghers-pub-and-restaurant-new-york", "name": "Carragher's Pub & Restaurant", "image_url": "https://s3-media4.fl.yelpcdn.com/bphoto/KaAommL_qMw09IV_AY3x0Q/o.jpg", "is_closed": false, "url": "https://www.yelp.com/biz/carraghers-pub-and-restaurant-new-york?adjust_creative=Vw2ZAYX48yvF8qP0CjwWnw&utm_campaign=yelp_api_v3&utm_medium=api_v3_business_search&utm_source=Vw2ZAYX48yvF8qP0CjwWnw", "review_count": 202, "categories": [{"alias": "pubs", "title": "Pubs"}, {"alias": "sportsbars", "title": "Sports Bars"}, {"alias": "british", "title": "British"}], "rating": 4.0, "coordinates": {"latitude": 40.7544, "longitude": -73.9895415}, "transactions": ["pickup"], "price": "$$", "location": {"address1": "228 W 39th St", "address2": "", "address3": "", "city": "New York", "zip_code": "10018", "country": "US", "state": "NY", "display_address": ["228 W 39th St", "New York, NY 10018"]}, "phone": "+16463701545", "display_phone": "(646) 370-1545", "distance": 1132.663045802096}, {"id": "G6Kc58Oc42uXY2alGCoDBA", "alias": "the-churchill-tavern-new-york", "name": "The Churchill Tavern", "image_url": "https://s3-media2.fl.yelpcdn.com/bphoto/cmDOvXC3Bp5kUPVlqxfusg/o.jpg", "is_closed": false, "url": "https://www.yelp.com/biz/the-churchill-tavern-new-york?adjust_creative=Vw2ZAYX48yvF8qP0CjwWnw&utm_campaign=yelp_api_v3&utm_medium=api_v3_business_search&utm_source=Vw2ZAYX48yvF8qP0CjwWnw", "review_count": 227, "categories": [{"alias": "pubs", "title": "Pubs"}, {"alias": "british", "title": "British"}], "rating": 3.5, "coordinates": {"latitude": 40.7435888, "longitude": -73.9844841}, "transactions": ["restaurant_reservation"], "price": "$$", "location": {"address1": "45 E 28th St", "address2": "", "address3": "", "city": "New York", "zip_code": "10016", "country": "US", "state": "NY", "display_address": ["45 E 28th St", "New York, NY 10016"]}, "phone": "+16464768419", "display_phone": "(646) 476-8419", "distance": 1916.2161530547698}, {"id": "PJS8jssQ-k7avg3_77OhUQ", "alias": "gmt-tavern-new-york", "name": "GMT Tavern", "image_url": "https://s3-media2.fl.yelpcdn.com/bphoto/Hzj5S7IrnXPV9P45lQyaAA/o.jpg", "is_closed": false, "url": "https://www.yelp.com/biz/gmt-tavern-new-york?adjust_creative=Vw2ZAYX48yvF8qP0CjwWnw&utm_campaign=yelp_api_v3&utm_medium=api_v3_business_search&utm_source=Vw2ZAYX48yvF8qP0CjwWnw", "review_count": 200, "categories": [{"alias": "bars", "title": "Bars"}, {"alias": "british", "title": "British"}, {"alias": "tradamerican", "title": "American (Traditional)"}], "rating": 3.5, "coordinates": {"latitude": 40.7280325954126, "longitude": -73.999104554426}, "transactions": [], "price": "$$", "location": {"address1": "142 Bleecker St", "address2": "", "address3": "", "city": "New York", "zip_code": "10012", "country": "US", "state": "NY", "display_address": ["142 Bleecker St", "New York, NY 10012"]}, "phone": "+16468633776", "display_phone": "(646) 863-3776", "distance": 3977.2714953882555}, {"id": "yDKChr-KX1Q1TbxUjaQJ_g", "alias": "the-spotted-dog-new-york", "name": "The Spotted Dog", "image_url": "https://s3-media2.fl.yelpcdn.com/bphoto/qRmIeerUUvRsFtu-YEnGTQ/o.jpg", "is_closed": false, "url": "https://www.yelp.com/biz/the-spotted-dog-new-york?adjust_creative=Vw2ZAYX48yvF8qP0CjwWnw&utm_campaign=yelp_api_v3&utm_medium=api_v3_business_search&utm_source=Vw2ZAYX48yvF8qP0CjwWnw", "review_count": 101, "categories": [{"alias": "british", "title": "British"}, {"alias": "irish", "title": "Irish"}, {"alias": "tradamerican", "title": "American (Traditional)"}], "rating": 4.0, "coordinates": {"latitude": 40.7623521711694, "longitude": -73.9597779041227}, "transactions": ["pickup", "delivery"], "price": "$$", "location": {"address1": "1154 1st Ave", "address2": null, "address3": null, "city": "New York", "zip_code": "10065", "country": "US", "state": "NY", "display_address": ["1154 1st Ave", "New York, NY 10065"]}, "phone": "+16466495331", "display_phone": "(646) 649-5331", "distance": 1594.669787073367}, {"id": "FlgTV8DgQpm1D9lwC_-ZQA", "alias": "bluebird-london-nyc-new-york-4", "name": "Bluebird London NYC", "image_url": "https://s3-media2.fl.yelpcdn.com/bphoto/tDu527vODacGgB90fKtbQA/o.jpg", "is_closed": false, "url": "https://www.yelp.com/biz/bluebird-london-nyc-new-york-4?adjust_creative=Vw2ZAYX48yvF8qP0CjwWnw&utm_campaign=yelp_api_v3&utm_medium=api_v3_business_search&utm_source=Vw2ZAYX48yvF8qP0CjwWnw", "review_count": 156, "categories": [{"alias": "british", "title": "British"}, {"alias": "bars", "title": "Bars"}, {"alias": "breakfast_brunch", "title": "Breakfast & Brunch"}], "rating": 3.5, "coordinates": {"latitude": 40.76847, "longitude": -73.983092}, "transactions": [], "price": "$$$", "location": {"address1": "10 Columbus Cir", "address2": "Fl 3rd", "address3": "", "city": "New York", "zip_code": "10019", "country": "US", "state": "NY", "display_address": ["10 Columbus Cir", "Fl 3rd", "New York, NY 10019"]}, "phone": "+13476822100", "display_phone": "(347) 682-2100", "distance": 1007.6176341306971}, {"id": "BBszjdL8z21T9JpnNYgGiw", "alias": "cherry-point-brooklyn", "name": "Cherry Point", "image_url": "https://s3-media2.fl.yelpcdn.com/bphoto/A6PwgtA4y93G4fdlykqMGA/o.jpg", "is_closed": false, "url": "https://www.yelp.com/biz/cherry-point-brooklyn?adjust_creative=Vw2ZAYX48yvF8qP0CjwWnw&utm_campaign=yelp_api_v3&utm_medium=api_v3_business_search&utm_source=Vw2ZAYX48yvF8qP0CjwWnw", "review_count": 119, "categories": [{"alias": "cocktailbars", "title": "Cocktail Bars"}, {"alias": "british", "title": "British"}, {"alias": "modern_european", "title": "Modern European"}], "rating": 4.5, "coordinates": {"latitude": 40.7244954175426, "longitude": -73.9511575076571}, "transactions": [], "price": "$$", "location": {"address1": "664 Manhattan Ave", "address2": "", "address3": "", "city": "Brooklyn", "zip_code": "11222", "country": "US", "state": "NY", "display_address": ["664 Manhattan Ave", "Brooklyn, NY 11222"]}, "phone": "+17183893828", "display_phone": "(718) 389-3828", "distance": 4591.484115960356}, {"id": "ihd2cISx6muy6bKVPhA4cg", "alias": "queensyard-new-york", "name": "Queensyard", "image_url": "https://s3-media2.fl.yelpcdn.com/bphoto/F6vlLctlqqbCOcmVwtFBiA/o.jpg", "is_closed": false, "url": "https://www.yelp.com/biz/queensyard-new-york?adjust_creative=Vw2ZAYX48yvF8qP0CjwWnw&utm_campaign=yelp_api_v3&utm_medium=api_v3_business_search&utm_source=Vw2ZAYX48yvF8qP0CjwWnw", "review_count": 69, "categories": [{"alias": "british", "title": "British"}], "rating": 3.5, "coordinates": {"latitude": 40.75353, "longitude": -74.0009}, "transactions": [], "price": "$$$", "location": {"address1": "500 W 33rd Street Level 4", "address2": null, "address3": "", "city": "New York", "zip_code": "10001", "country": "US", "state": "NY", "display_address": ["500 W 33rd Street Level 4", "New York, NY 10001"]}, "phone": "+12123770780", "display_phone": "(212) 377-0780", "distance": 1922.3269848751795}, {"id": "kJN998lZUKPbzYX3qSLc5Q", "alias": "channel-4-restaurant-manhattan", "name": "Channel 4 Restaurant", "image_url": "", "is_closed": false, "url": "https://www.yelp.com/biz/channel-4-restaurant-manhattan?adjust_creative=Vw2ZAYX48yvF8qP0CjwWnw&utm_campaign=yelp_api_v3&utm_medium=api_v3_business_search&utm_source=Vw2ZAYX48yvF8qP0CjwWnw", "review_count": 2, "categories": [{"alias": "british", "title": "British"}, {"alias": "pubs", "title": "Pubs"}], "rating": 2.0, "coordinates": {"latitude": 40.7581071254435, "longitude": -73.9803779125214}, "transactions": [], "location": {"address1": "58 W 48th St", "address2": "", "address3": "", "city": "Manhattan", "zip_code": "10036", "country": "US", "state": "NY", "display_address": ["58 W 48th St", "Manhattan, NY 10036"]}, "phone": "+12128190095", "display_phone": "(212) 819-0095", "distance": 282.73493486790284}, {"id": "RT9J7k42HkokPbRNk8q6XA", "alias": "wimpy-restaurants-group-teddington", "name": "Wimpy Restaurants Group", "image_url": "", "is_closed": false, "url": "https://www.yelp.com/biz/wimpy-restaurants-group-teddington?adjust_creative=Vw2ZAYX48yvF8qP0CjwWnw&utm_campaign=yelp_api_v3&utm_medium=api_v3_business_search&utm_source=Vw2ZAYX48yvF8qP0CjwWnw", "review_count": 1, "categories": [{"alias": "british", "title": "British"}], "rating": 5.0, "coordinates": {"latitude": 51.4258901, "longitude": -0.3376189}, "transactions": [], "price": "\u00a3", "location": {"address1": "40 Broad Street", "address2": "", "address3": "", "city": "Teddington", "zip_code": "TW11 8QY", "country": "GB", "state": "XGL", "display_address": ["40 Broad Street", "Teddington TW11 8QY", "United Kingdom"]}, "phone": "+442089770868", "display_phone": "+44 20 8977 0868", "distance": 6645.37499405617}]}