{"businesses": [{"id": "u-1o6fSvTnqLBtqFuLFqNw", "alias": "budapest-cafe-and-restaurant-new-york", "name": "Budapest Cafe and Restaurant", "image_url": "https://s3-media3.fl.yelpcdn.com/bphoto/trQg7ZazWcU4Te7yPIecLA/o.jpg", "is_closed": false, "url": "https://www.yelp.com/biz/budapest-cafe-and-restaurant-new-york?adjust_creative=Vw2ZAYX48yvF8qP0CjwWnw&utm_campaign=yelp_api_v3&utm_medium=api_v3_business_search&utm_source=Vw2ZAYX48yvF8qP0CjwWnw", "review_count": 229, "categories": [{"alias": "bakeries", "title": "Bakeries"}, {"alias": "hungarian", "title": "Hungarian"}, {"alias": "cafes", "title": "Cafes"}], "rating": 3.5, "coordinates": {"latitude": 40.77715, "longitude": -73.95264}, "transactions": [], "price": "$$", "location": {"address1": "1631 2nd Ave", "address2": null, "address3": "", "city": "New York", "zip_code": "10028", "country": "US", "state": "NY", "display_address": ["1631 2nd Ave", "New York, NY 10028"]}, "phone": "+12123271105", "display_phone": "(212) 327-1105", "distance": 2879.981419893855}, {"id": "D7bk9wf9WLh2U71-sB5vxg", "alias": "first-hungarian-literary-soc-new-york", "name": "First Hungarian Literary Soc", "image_url": "https://s3-media2.fl.yelpcdn.com/bphoto/B905hmm0BGV9280kXMSiNA/o.jpg", "is_closed": false, "url": "https://www.yelp.com/biz/first-hungarian-literary-soc-new-york?adjust_creative=Vw2ZAYX48yvF8qP0CjwWnw&utm_campaign=yelp_api_v3&utm_medium=api_v3_business_search&utm_source=Vw2ZAYX48yvF8qP0CjwWnw", "review_count": 4, "categories": [{"alias": "social_clubs", "title": "Social Clubs"}, {"alias": "hungarian", "title": "Hungarian"}], "rating": 4.5, "coordinates": {"latitude": 40.77309, "longitude": -73.95371}, "transactions": [], "location": {"address1": "323 E 79th St", "address2": "Ste 2", "address3": "", "city": "New York", "zip_code": "10021", "country": "US", "state": "NY", "display_address": ["323 E 79th St", "Ste 2", "New York, NY 10021"]}, "phone": "+12122885002", "display_phone": "(212) 288-5002", "distance": 2522.9899866443366}, {"id": "ozyAYd8hardDsx2_l57khA", "alias": "andres-hungarian-forest-hills", "name": "Andre's Hungarian", "image_url": "https://s3-media2.fl.yelpcdn.com/bphoto/FHq0FzmzNWC30HvBk8wJvQ/o.jpg", "is_closed": false, "url": "https://www.yelp.com/biz/andres-hungarian-forest-hills?adjust_creative=Vw2ZAYX48yvF8qP0CjwWnw&utm_campaign=yelp_api_v3&utm_medium=api_v3_business_search&utm_source=Vw2ZAYX48yvF8qP0CjwWnw", "review_count": 74, "categories": [{"alias": "bakeries", "title": "Bakeries"}, {"alias": "hungarian", "title": "Hungarian"}], "rating": 3.5, "coordinates": {"latitude": 40.7265535, "longitude": -73.8535516}, "transactions": [], "price": "$$", "location": {"address1": "100-28 Queens Blvd", "address2": "", "address3": "", "city": "Forest Hills", "zip_code": "11375", "country": "US", "state": "NY", "display_address": ["100-28 Queens Blvd", "Forest Hills, NY 11375"]}, "phone": "+17188300266", "display_phone": "(718) 830-0266", "distance": 11209.509099820267}, {"id": "xuFjn0P3mXr0WQ1NZa92YQ", "alias": "polish-pork-store-commack", "name": "Polish Pork Store", "image_url": "https://s3-media3.fl.yelpcdn.com/bphoto/EGsaba2btufGdwYrfgujtA/o.jpg", "is_closed": false, "url": "https://www.yelp.com/biz/polish-pork-store-commack?adjust_creative=Vw2ZAYX48yvF8qP0CjwWnw&utm_campaign=yelp_api_v3&utm_medium=api_v3_business_search&utm_source=Vw2ZAYX48yvF8qP0CjwWnw", "review_count": 38, "categories": [{"alias": "polish", "title": "Polish"}, {"alias": "hungarian", "title": "Hungarian"}, {"alias": "delis", "title": "Delis"}], "rating": 4.5, "coordinates": {"latitude": 40.8377456929203, "longitude": -73.2950878088632}, "transactions": [], "price": "$", "location": {"address1": "195 Commack Rd", "address2": "", "address3": "", "city": "Commack", "zip_code": "11725", "country": "US", "state": "NY", "display_address": ["195 Commack Rd", "Commack, NY 11725"]}, "phone": "+16314864544", "display_phone": "(631) 486-4544", "distance": 58168.63190441773}, {"id": "HEtk9ycAlpSOYkVzyKRzMA", "alias": "blue-danube-restaurant-trenton", "name": "Blue Danube Restaurant", "image_url": "https://s3-media4.fl.yelpcdn.com/bphoto/D8AvVlzIdA3SrYbU1N8lVA/o.jpg", "is_closed": false, "url": "https://www.yelp.com/biz/blue-danube-restaurant-trenton?adjust_creative=Vw2ZAYX48yvF8qP0CjwWnw&utm_campaign=yelp_api_v3&utm_medium=api_v3_business_search&utm_source=Vw2ZAYX48yvF8qP0CjwWnw", "review_count": 59, "categories": [{"alias": "german", "title": "German"}, {"alias": "hungarian", "title": "Hungarian"}, {"alias": "polish", "title": "Polish"}], "rating": 4.0, "coordinates": {"latitude": 40.2045779, "longitude": -74.7459306}, "transactions": [], "price": "$$", "location": {"address1": "538 Adeline St", "address2": "", "address3": "", "city": "Trenton", "zip_code": "08611", "country": "US", "state": "NJ", "display_address": ["538 Adeline St", "Trenton, NJ 08611"]}, "phone": "+16093936133", "display_phone": "(609) 393-6133", "distance": 89609.56655014405}, {"id": "38a7QHgSMmqaqCHi5zlsdw", "alias": "the-carriage-house-branchville", "name": "The Carriage House", "image_url": "https://s3-media3.fl.yelpcdn.com/bphoto/tGPBl_5j-2w5WBmd0eGeCQ/o.jpg", "is_closed": false, "url": "https://www.yelp.com/biz/the-carriage-house-branchville?adjust_creative=Vw2ZAYX48yvF8qP0CjwWnw&utm_campaign=yelp_api_v3&utm_medium=api_v3_business_search&utm_source=Vw2ZAYX48yvF8qP0CjwWnw", "review_count": 46, "categories": [{"alias": "german", "title": "German"}, {"alias": "tradamerican", "title": "American (Traditional)"}, {"alias": "hungarian", "title": "Hungarian"}], "rating": 3.5, "coordinates": {"latitude": 41.1685269282526, "longitude": -74.7919281944633}, "transactions": [], "price": "$$", "location": {"address1": "470 U S 206", "address2": "", "address3": null, "city": "Branchville", "zip_code": "07826", "country": "US", "state": "NJ", "display_address": ["470 U S 206", "Branchville, NJ 07826"]}, "phone": "+19739482141", "display_phone": "(973) 948-2141", "distance": 82012.75026318544}, {"id": "LnXpLpAw3v92cJOpgRiSbg", "alias": "hungarian-bistro-fairfield", "name": "Hungarian Bistro", "image_url": "https://s3-media4.fl.yelpcdn.com/bphoto/kZD8skxd13KuXtOpiqRqdg/o.jpg", "is_closed": false, "url": "https://www.yelp.com/biz/hungarian-bistro-fairfield?adjust_creative=Vw2ZAYX48yvF8qP0CjwWnw&utm_campaign=yelp_api_v3&utm_medium=api_v3_business_search&utm_source=Vw2ZAYX48yvF8qP0CjwWnw", "review_count": 2, "categories": [{"alias": "hungarian", "title": "Hungarian"}], "rating": 5.0, "coordinates": {"latitude": 41.167348, "longitude": -73.232883}, "transactions": [], "location": {"address1": "901 Kings Hwy E", "address2": "", "address3": null, "city": "Fairfield", "zip_code": "06825", "country": "US", "state": "CT", "display_address": ["901 Kings Hwy E", "Fairfield, CT 06825"]}, "phone": "+12034146037", "display_phone": "(203) 414-6037", "distance": 77211.35741826221}]}